{
    "locations": [
      {
        "name_store" : "MediMate Manakau",
        "name": "1 Leyton Way, Manukau City Centre",
        "latitude": -36.991069,
        "longitude": 174.878280
      },
      {
        "name_store" : "MediMate NewMarket",
        "name": "277 Broadway, Newmarket",
        "latitude": -36.869167,
        "longitude": 174.777222
      },
      {
        "name_store" : "MediMate Mount Albert",
        "name": "80 Saint Lukes Road, Mount Albert",
        "latitude": -36.879907,
        "longitude": 174.737292
      },
      {
        "name_store" : "MediMate Albany",
        "name": "219 Don McKinnon Drive, Albany",
        "latitude": -36.730776,
        "longitude": 174.703392
      },
      {
        "name_store" : "MediMate CBD",
        "name": "34 Princes Street, Auckland CBD",
        "latitude": -36.848460,
        "longitude": 174.763332
      }
    ]
  }
  
